33.8,M,0000,0000*6D
33.8,M,0000,0000*6D
$G$GPGGA,173548.000,4025.6915,N,08654.7344,W,2,8,1.05,195.5,M,-33.8,M,0000,0000*63
$G$GPGGA,173548.000,4025.6915,N,08654.7344,W,2,8,1.05,195.5,M,-33.8,M,0000,0000*63
$G49.000,4025.6913,N,08654.7343,W,2,9,1.00,195.5,M,-33.8,M,0000,0000*67
$G49.000,4025.6913,N,08654.7343,W,2,9,1.00,195.5,M,-33.8,M,0000,0000*67
$GPRMC,173549$GPGGA,173551.000,4025.6910,N,08654.7342,W,2,8,1.04,195.5,M,-33.8,M,0000,0000*69
$GPRMC,173549$GPGGA,173551.000,4025.6910,N,08654.7342,W,2,8,1.04,195.5,M,-33.8,M,0000,0000*69
$G,173552.000,A,4025.6909,N,08654.7342,W,0.25,107.32,150412,,,D*75
$G,173552.000,A,4025.6909,N,08654.7342,W,0.25,107.32,150412,,,D*75
$GPGGA,173553.000,$GPGGA,173554.000,4025.6909,N,08654.7340,W,2,8,1.08,195.6,M,-33.8,M,0000,0000*69
$GPGGA,173553.000,$GPGGA,173554.000,4025.6909,N,08654.7340,W,2,8,1.08,195.6,M,-33.8,M,0000,0000*69
$G$GPGGA,173556.000,4025.6908,N,08654.7336,W,2,9,1.00,195.5,M,-33.8,M,0000,0000*61
$G$GPGGA,173556.000,4025.6908,N,08654.7336,W,2,9,1.00,195.5,M,-33.8,M,0000,0000*61
$G$GPGGA,173557.000,4025.6906,N,08654.7334,W,2,9,1.00,195.4,M,-33.8,M,0000,0000*6D
$G$GPGGA,173557.000,4025.6906,N,08654.7334,W,2,9,1.00,195.4,M,-33.8,M,0000,0000*6D
$G$GPGGA,173559.000,4025.6906,N,08654.7333,W,2,8,1.04,195.3,M,-33.8,M,0000,0000*66
$G$GPGGA,173559.000,4025.6906,N,08654.7333,W,2,8,1.04,195.3,M,-33.8,M,0000,0000*66
$GM,0000,0000*6F
$GM,0000,0000*6F
$GPRMC,173600.000,A,4025.6906,N,08654.7333,W,0.01,107.32,150412,,,D*$GPGGA,173602.000,4025.6906,N,08654.7333,W,2,8,1.08,195.2,M,-33.8,M,0000,0000*66
$GPRMC,173600.000,A,4025.6906,N,08654.7333,W,0.01,107.32,150412,,,D*$GPGGA,173602.000,4025.6906,N,08654.7333,W,2,8,1.08,195.2,M,-33.8,M,0000,0000*66
$G,,,D*7E
$G,,,D*7E
$GPGGA,173604.000,4025.6906,N,08654.7333,W,2,8,1.08,195.1,M,-33.8,M,0000,00$GPGGA,173605.000,4025.6906,N,08654.7333,W,2,8,1.08,195.0,M,-33.8,M,0000,0000*63
$GPGGA,173604.000,4025.6906,N,08654.7333,W,2,8,1.08,195.1,M,-33.8,M,0000,00$GPGGA,173605.000,4025.6906,N,08654.7333,W,2,8,1.08,195.0,M,-33.8,M,0000,0000*63
$G$GPGGA,173607.000,4025.6905,N,08654.7332,W,2,8,1.08,195.0,M,-33.8,M,0000,0000*63
$G$GPGGA,173607.000,4025.6905,N,08654.7332,W,2,8,1.08,195.0,M,-33.8,M,0000,0000*63
$G332,W,2,8,1.07,195.0,M,-33.8,M,0000,0000*63
$G332,W,2,8,1.07,195.0,M,-33.8,M,0000,0000*63
$GPRMC,173608.000,A,4025.6905,N,08654.7$GPGGA,173610.000,4025.6905,N,08654.7332,W,2,8,1.08,195.0,M,-33.8,M,0000,0000*65
$GPRMC,173608.000,A,4025.6905,N,08654.7$GPGGA,173610.000,4025.6905,N,08654.7332,W,2,8,1.08,195.0,M,-33.8,M,0000,0000*65
$GPRMC,173610.000,A,4025.6905,N,08654.7332,W,0.07,107.32,150412,,,D*7B
$GPRMC,173610.000,A,4025.6905,N,08654.7332,W,0.07,107.32,150412,,,D*7B
$GPGGA,173611.50412,,,D*7A
$GPGGA,173611.50412,,,D*7A
$GPGGA,173612.000,4025.6905,N,08654.7331,W,2,9,1.03,194.9,M,-33.8,M,00$GPGGA,173613.000,4025.6905,N,08654.7331,W,2,7,1.13,194.9,M,-33.8,M,0000,0000*68
$GPGGA,173612.000,4025.6905,N,08654.7331,W,2,9,1.03,194.9,M,-33.8,M,00$GPGGA,173613.000,4025.6905,N,08654.7331,W,2,7,1.13,194.9,M,-33.8,M,0000,0000*68
$G$GPGGA,173615.000,4025.6904,N,08654.7330,W,2,8,1.08,195.0,M,-33.8,M,0000,0000*63
$G$GPGGA,173615.000,4025.6904,N,08654.7330,W,2,8,1.08,195.0,M,-33.8,M,0000,0000*63
$G616.000,4025.6904,N,08654.7330,W,2,7,1.13,195.0,M,-33.8,M,0000,0000*65
$G616.000,4025.6904,N,08654.7330,W,2,7,1.13,195.0,M,-33.8,M,0000,0000*65
$GPRMC,17361$GPGGA,173618.000,4025.6904,N,08654.7329,W,2,8,1.08,195.0,M,-33.8,M,0000,0000*66
$GPRMC,17361$GPGGA,173618.000,4025.6904,N,08654.7329,W,2,8,1.08,195.0,M,-33.8,M,0000,0000*66
$G619.000,A,4025.6904,N,08654.7329,W,0.12,107.32,150412,,,D*7D
$G619.000,A,4025.6904,N,08654.7329,W,0.12,107.32,150412,,,D*7D
$GPGGA,173620.000,4025$GPGGA,173621.000,4025.6904,N,08654.7328,W,2,8,1.08,195.0,M,-33.8,M,0000,0000*6D
$GPGGA,173620.000,4025$GPGGA,173621.000,4025.6904,N,08654.7328,W,2,8,1.08,195.0,M,-33.8,M,0000,0000*6D
$G$GPGGA,173623.000,4025.6902,N,08654.7332,W,2,9,1.00,195.1,M,-33.8,M,0000,0000*6A
$G$GPGGA,173623.000,4025.6902,N,08654.7332,W,2,9,1.00,195.1,M,-33.8,M,0000,0000*6A
$G$GPGGA,173624.000,4025.6896,N,08654.7330,W,2,9,1.00,195.2,M,-33.8,M,0000,0000*60
$G$GPGGA,173624.000,4025.6896,N,08654.7330,W,2,9,1.00,195.2,M,-33.8,M,0000,0000*60
$G$GPGGA,173626.000,4025.6877,N,08654.7325,W,2,9,1.00,194.9,M,-33.8,M,0000,0000*63
$G$GPGGA,173626.000,4025.6877,N,08654.7325,W,2,9,1.00,194.9,M,-33.8,M,0000,0000*63
$G.7335,W,2,9,1.00,193.7,M,-33.8,M,0000,0000*6C
$G.7335,W,2,9,1.00,193.7,M,-33.8,M,0000,0000*6C
$GPRMC,173627.000,A,4025.6853,N,08654$GPGGA,173629.000,4025.6836,N,08654.7328,W,2,8,1.04,192.0,M,-33.8,M,0000,0000*6E
$GPRMC,173627.000,A,4025.6853,N,08654$GPGGA,173629.000,4025.6836,N,08654.7328,W,2,8,1.04,192.0,M,-33.8,M,0000,0000*6E
$G0412,,,D*4A
$G0412,,,D*4A
$GPGGA,173631.000,4025.6840,N,08654.7308,W,2,7,1.10,190.5,M,-33.8,M,000$GPGGA,173632.000,4025.6847,N,08654.7305,W,2,7,1.10,190.1,M,-33.8,M,0000,0000*64
$GPGGA,173631.000,4025.6840,N,08654.7308,W,2,7,1.10,190.5,M,-33.8,M,000$GPGGA,173632.000,4025.6847,N,08654.7305,W,2,7,1.10,190.1,M,-33.8,M,0000,0000*64
$G$GPGGA,173634.000,4025.6847,N,08654.7292,W,2,7,1.10,190.5,M,-33.8,M,0000,0000*69
$G$GPGGA,173634.000,4025.6847,N,08654.7292,W,2,7,1.10,190.5,M,-33.8,M,0000,0000*69
$G654.7287,W,2,7,1.10,190.4,M,-33.8,M,0000,0000*6E
$G654.7287,W,2,7,1.10,190.4,M,-33.8,M,0000,0000*6E
$GPRMC,173635.000,A,4025.6844,N,08$GPGGA,173637.000,4025.6837,N,08654.7279,W,2,7,1.10,190.9,M,-33.8,M,0000,0000*64
$GPRMC,173635.000,A,4025.6844,N,08$GPGGA,173637.000,4025.6837,N,08654.7279,W,2,7,1.10,190.9,M,-33.8,M,0000,0000*64
$G8.000,A,4025.6837,N,08654.7271,W,2.20,90.00,150412,,,D*4E
$G8.000,A,4025.6837,N,08654.7271,W,2.20,90.00,150412,,,D*4E
$GPGGA,173639.000,4025.68$GPGGA,173640.000,4025.6833,N,08654.7260,W,2,7,1.10,190.8,M,-33.8,M,0000,0000*69
$GPGGA,173639.000,4025.68$GPGGA,173640.000,4025.6833,N,08654.7260,W,2,7,1.10,190.8,M,-33.8,M,0000,0000*69
$G$GPGGA,173642.000,4025.6832,N,08654.7251,W,2,6,1.43,189.7,M,-33.8,M,0000,0000*68
$G$GPGGA,173642.000,4025.6832,N,08654.7251,W,2,6,1.43,189.7,M,-33.8,M,0000,0000*68
$G$GPGGA,173643.000,4025.6827,N,08654.7246,W,2,8,1.05,189.4,M,-33.8,M,0000,0000*64
$G$GPGGA,173643.000,4025.6827,N,08654.7246,W,2,8,1.05,189.4,M,-33.8,M,0000,0000*64
$G$GPGGA,173645.000,4025.6820,N,08654.7237,W,2,8,1.05,189.4,M,-33.8,M,0000,0000*63
$G$GPGGA,173645.000,4025.6820,N,08654.7237,W,2,8,1.05,189.4,M,-33.8,M,0000,0000*63
$G3.8,M,0000,0000*6A
$G3.8,M,0000,0000*6A
$GPRMC,173646.000,A,4025.6815,N,08654.7229,W,1.63,114.08,150412,$GPGGA,173648.000,4025.6802,N,08654.7210,W,2,9,1.00,190.5,M,-33.8,M,0000,0000*66
$GPRMC,173646.000,A,4025.6815,N,08654.7229,W,1.63,114.08,150412,$GPGGA,173648.000,4025.6802,N,08654.7210,W,2,9,1.00,190.5,M,-33.8,M,0000,0000*66
$G,150412,,,D*74
$G,150412,,,D*74
$GPGGA,173650.000,4025.6787,N,08654.7199,W,2,9,1.00,191.7,M,-33.8,M,$GPGGA,173651.000,4025.6779,N,08654.7199,W,2,9,1.00,191.9,M,-33.8,M,0000,0000*62
$GPGGA,173650.000,4025.6787,N,08654.7199,W,2,9,1.00,191.7,M,-33.8,M,$GPGGA,173651.000,4025.6779,N,08654.7199,W,2,9,1.00,191.9,M,-33.8,M,0000,0000*62
$G$GPGGA,173653.000,4025.6768,N,08654.7198,W,2,9,1.00,192.0,M,-33.8,M,0000,0000*6B
$G$GPGGA,173653.000,4025.6768,N,08654.7198,W,2,9,1.00,192.0,M,-33.8,M,0000,0000*6B
$GN,08654.7199,W,2,9,1.00,192.1,M,-33.8,M,0000,0000*64
$GN,08654.7199,W,2,9,1.00,192.1,M,-33.8,M,0000,0000*64
$GPRMC,173654.000,A,4025.6760,$GPGGA,173656.000,4025.6748,N,08654.7201,W,2,9,1.00,192.4,M,-33.8,M,0000,0000*6B
$GPRMC,173654.000,A,4025.6760,$GPGGA,173656.000,4025.6748,N,08654.7201,W,2,9,1.00,192.4,M,-33.8,M,0000,0000*6B
$G,N,08654.7202,W,2.81,184.18,150412,,,D*7A
$G,N,08654.7202,W,2.81,184.18,150412,,,D*7A
$GPGGA,173658.000,4025.6731,N,08654.7204,$GPGGA,173659.000,4025.6724,N,08654.7201,W,2,9,1.00,191.8,M,-33.8,M,0000,0000*61
$GPGGA,173658.000,4025.6731,N,08654.7204,$GPGGA,173659.000,4025.6724,N,08654.7201,W,2,9,1.00,191.8,M,-33.8,M,0000,0000*61
$G$GPGGA,173701.000,4025.6714,N,08654.7196,W,2,9,1.00,192.2,M,-33.8,M,0000,0000*6A
$G$GPGGA,173701.000,4025.6714,N,08654.7196,W,2,9,1.00,192.2,M,-33.8,M,0000,0000*6A
$G$GPGGA,173702.000,4025.6711,N,08654.7194,W,2,9,1.00,191.9,M,-33.8,M,0000,0000*66
$G$GPGGA,173702.000,4025.6711,N,08654.7194,W,2,9,1.00,191.9,M,-33.8,M,0000,0000*66
$G$GPGGA,173704.000,4025.6701,N,08654.7196,W,2,9,1.00,192.0,M,-33.8,M,0000,0000*69
$G$GPGGA,173704.000,4025.6701,N,08654.7196,W,2,9,1.00,192.0,M,-33.8,M,0000,0000*69
$G,0000*6C
$G,0000*6C
$GPRMC,173705.000,A,4025.6692,N,08654.7193,W,3.30,174.77,150412,,,D*74
$GPRMC,173705.000,A,4025.6692,N,08654.7193,W,3.30,174.77,150412,,,D*74
$G$GPGGA,173707.000,4025.6671,N,08654.7201,W,2,9,1.00,191.6,M,-33.8,M,0000,0000*64
$G$GPGGA,173707.000,4025.6671,N,08654.7201,W,2,9,1.00,191.6,M,-33.8,M,0000,0000*64
$G9
$G9
$GPGGA,173709.000,4025.6654,N,08654.7207,W,2,9,1.00,192.4,M,-33.8,M,0000,0000*6A$GPGGA,173710.000,4025.6645,N,08654.7209,W,2,9,1.00,192.7,M,-33.8,M,0000,0000*6F
$GPGGA,173709.000,4025.6654,N,08654.7207,W,2,9,1.00,192.4,M,-33.8,M,0000,0000*6A$GPGGA,173710.000,4025.6645,N,08654.7209,W,2,9,1.00,192.7,M,-33.8,M,0000,0000*6F
$G$GPGGA,173712.000,4025.6629,N,08654.7214,W,2,9,1.00,193.7,M,-33.8,M,0000,0000*6A
$G$GPGGA,173712.000,4025.6629,N,08654.7214,W,2,9,1.00,193.7,M,-33.8,M,0000,0000*6A
$GW,2,8,1.04,194.4,M,-33.8,M,0000,0000*61
$GW,2,8,1.04,194.4,M,-33.8,M,0000,0000*61
$GPRMC,173713.000,A,4025.6620,N,08654.7216,$GPGGA,173715.000,4025.6605,N,08654.7220,W,2,8,1.04,195.4,M,-33.8,M,0000,0000*64
$GPRMC,173713.000,A,4025.6620,N,08654.7216,$GPGGA,173715.000,4025.6605,N,08654.7220,W,2,8,1.04,195.4,M,-33.8,M,0000,0000*64
$GPRMC,173715.000,A,4025.6605,N,08654.7220,W,2.58,179.76,150412,,,D*73
$GPRMC,173715.000,A,4025.6605,N,08654.7220,W,2.58,179.76,150412,,,D*73
$GPGGA,173716.,150412,,,D*7A
$GPGGA,173716.,150412,,,D*7A
$GPGGA,173717.000,4025.6594,N,08654.7221,W,2,7,1.10,196.5,M,-33.8,M,$GPGGA,173718.000,4025.6587,N,08654.7222,W,2,7,1.10,196.7,M,-33.8,M,0000,0000*68
$GPGGA,173717.000,4025.6594,N,08654.7221,W,2,7,1.10,196.5,M,-33.8,M,$GPGGA,173718.000,4025.6587,N,08654.7222,W,2,7,1.10,196.7,M,-33.8,M,0000,0000*68
$G$GPGGA,173720.000,4025.6577,N,08654.7222,W,2,7,1.10,197.1,M,-33.8,M,0000,0000*6B
$G$GPGGA,173720.000,4025.6577,N,08654.7222,W,2,7,1.10,197.1,M,-33.8,M,0000,0000*6B
$GN,08654.7225,W,2,7,1.10,197.5,M,-33.8,M,0000,0000*6B
$GN,08654.7225,W,2,7,1.10,197.5,M,-33.8,M,0000,0000*6B
$GPRMC,173721.000,A,4025.6575,$GPGGA,173723.000,4025.6555,N,08654.7227,W,2,7,1.10,197.8,M,-33.8,M,0000,0000*64
$GPRMC,173721.000,A,4025.6575,$GPGGA,173723.000,4025.6555,N,08654.7227,W,2,7,1.10,197.8,M,-33.8,M,0000,0000*64
$G5,N,08654.7226,W,0.88,194.09,150412,,,D*74
$G5,N,08654.7226,W,0.88,194.09,150412,,,D*74
$GPGGA,173725.000,4025.6538,N,08654.7227$GPGGA,173726.000,4025.6528,N,08654.7228,W,2,7,1.10,197.5,M,-33.8,M,0000,0000*69
$GPGGA,173725.000,4025.6538,N,08654.7227$GPGGA,173726.000,4025.6528,N,08654.7228,W,2,7,1.10,197.5,M,-33.8,M,0000,0000*69
$G$GPGGA,173728.000,4025.6512,N,08654.7225,W,2,7,1.10,197.6,M,-33.8,M,0000,0000*60
$G$GPGGA,173728.000,4025.6512,N,08654.7225,W,2,7,1.10,197.6,M,-33.8,M,0000,0000*60
$G,173729.000,4025.6503,N,08654.7223,W,2,7,1.10,197.4,M,-33.8,M,0000,0000*65
$G,173729.000,4025.6503,N,08654.7223,W,2,7,1.10,197.4,M,-33.8,M,0000,0000*65
$GPRMC,1$GPGGA,173731.000,4025.6485,N,08654.7225,W,2,7,1.10,197.6,M,-33.8,M,0000,0000*67
$GPRMC,1$GPGGA,173731.000,4025.6485,N,08654.7225,W,2,7,1.10,197.6,M,-33.8,M,0000,0000*67
$GC,173732.000,A,4025.6476,N,08654.7228,W,2.66,218.95,150412,,,D*7C
$GC,173732.000,A,4025.6476,N,08654.7228,W,2.66,218.95,150412,,,D*7C
$GPGGA,173733.000$GPGGA,173734.000,4025.6470,N,08654.7238,W,2,7,1.10,197.7,M,-33.8,M,0000,0000*65
$GPGGA,173733.000$GPGGA,173734.000,4025.6470,N,08654.7238,W,2,7,1.10,197.7,M,-33.8,M,0000,0000*65
$GPRMC,173734.000,A,4025.6470,N,08654.7238,W,2.40,219.88,150412,,,D*74
$GPRMC,173734.000,A,4025.6470,N,08654.7238,W,2.40,219.88,150412,,,D*74
$GPGGA,173735.$GPGGA,173736.000,4025.6462,N,08654.7238,W,2,7,1.10,197.9,M,-33.8,M,0000,0000*6A
$GPGGA,173735.$GPGGA,173736.000,4025.6462,N,08654.7238,W,2,7,1.10,197.9,M,-33.8,M,0000,0000*6A
$G$GPGGA,173737.000,4025.6456,N,08654.7236,W,2,7,1.10,198.1,M,-33.8,M,0000,0000*65
$G$GPGGA,173737.000,4025.6456,N,08654.7236,W,2,7,1.10,198.1,M,-33.8,M,0000,0000*65
$G$GPGGA,173739.000,4025.6444,N,08654.7233,W,2,7,1.10,197.6,M,-33.8,M,0000,0000*65
$G$GPGGA,173739.000,4025.6444,N,08654.7233,W,2,7,1.10,197.6,M,-33.8,M,0000,0000*65
$G9,M,-33.8,M,0000,0000*6B
$G9,M,-33.8,M,0000,0000*6B
$GPRMC,173740.000,A,4025.6440,N,08654.7229,W,2.35,162.21,1$GPGGA,173742.000,4025.6432,N,08654.7226,W,2,7,1.10,198.4,M,-33.8,M,0000,0000*61
$G,D*7D
$GPRMC,173740.000,A,4025.6440,N,08654.7229,W,2.35,162.21,1$GPGGA,173742.000,4025.6432,N,08654.7226,W,2,7,1.10,198.4,M,-33.8,M,0000,0000*61
$G,D*7D
$GPGGA,173744.000,4025.6425,N,08654.7218,W,2,7,1.10,198.8,M,-33.8,M,0000,0000$GPGGA,173745.000,4025.6425,N,08654.7217,W,2,7,1.10,198.6,M,-33.8,M,0000,0000*60
$GPGGA,173744.000,4025.6425,N,08654.7218,W,2,7,1.10,198.8,M,-33.8,M,0000,0000$GPGGA,173745.000,4025.6425,N,08654.7217,W,2,7,1.10,198.6,M,-33.8,M,0000,0000*60
$G$GPGGA,173747.000,4025.6414,N,08654.7218,W,2,7,1.10,197.9,M,-33.8,M,0000,0000*6F
$G$GPGGA,173747.000,4025.6414,N,08654.7218,W,2,7,1.10,197.9,M,-33.8,M,0000,0000*6F
$G4.7221,W,2,7,1.10,198.0,M,-33.8,M,0000,0000*61
$G4.7221,W,2,7,1.10,198.0,M,-33.8,M,0000,0000*61
$GPRMC,173748.000,A,4025.6408,N,0865$GPGGA,173750.000,4025.6398,N,08654.7229,W,2,7,1.10,197.6,M,-33.8,M,0000,0000*67
$GPRMC,173748.000,A,4025.6408,N,0865$GPGGA,173750.000,4025.6398,N,08654.7229,W,2,7,1.10,197.6,M,-33.8,M,0000,0000*67
$G2.27,150412,,,D*73
$G2.27,150412,,,D*73
$GPGGA,173752.000,4025.6384,N,08654.7232,W,2,8,1.03,196.9,M,-33.$GPGGA,173753.000,4025.6378,N,08654.7232,W,2,8,1.03,196.7,M,-33.8,M,0000,0000*6D
$GPGGA,173752.000,4025.6384,N,08654.7232,W,2,8,1.03,196.9,M,-33.$GPGGA,173753.000,4025.6378,N,08654.7232,W,2,8,1.03,196.7,M,-33.8,M,0000,0000*6D
$G$GPGGA,173755.000,4025.6365,N,08654.7239,W,2,7,1.10,196.5,M,-33.8,M,0000,0000*63
$G$GPGGA,173755.000,4025.6365,N,08654.7239,W,2,7,1.10,196.5,M,-33.8,M,0000,0000*63
$GW,2,7,1.10,196.5,M,-33.8,M,0000,0000*62
$GW,2,7,1.10,196.5,M,-33.8,M,0000,0000*62
$GPRMC,173756.000,A,4025.6358,N,08654.7242,$GPGGA,173758.000,4025.6343,N,08654.7247,W,2,7,1.10,196.3,M,-33.8,M,0000,0000*65
$GPRMC,173756.000,A,4025.6358,N,08654.7242,$GPGGA,173758.000,4025.6343,N,08654.7247,W,2,7,1.10,196.3,M,-33.8,M,0000,0000*65
$GPRMC,173758.000,A,4025.6343,N,08654.7247,W,2.64,203.23,150412,,,D*7D
$GPRMC,173758.000,A,4025.6343,N,08654.7247,W,2.64,203.23,150412,,,D*7D
$GPGGA,173759.24.56,150412,,,D*76
$GPGGA,173759.24.56,150412,,,D*76
$GPGGA,173800.000,4025.6331,N,08654.7260,W,2,7,1.10,196.6,M,-33$GPGGA,173801.000,4025.6325,N,08654.7269,W,2,7,1.10,196.5,M,-33.8,M,0000,0000*6C
$GPGGA,173800.000,4025.6331,N,08654.7260,W,2,7,1.10,196.6,M,-33$GPGGA,173801.000,4025.6325,N,08654.7269,W,2,7,1.10,196.5,M,-33.8,M,0000,0000*6C
$G$GPGGA,173803.000,4025.6318,N,08654.7288,W,2,8,1.03,196.3,M,-33.8,M,0000,0000*64
$G$GPGGA,173803.000,4025.6318,N,08654.7288,W,2,8,1.03,196.3,M,-33.8,M,0000,0000*64
$GPRMC,173803.000,A,4025.6318,N,08654.7288,W,2.63,262.81,150412,,,D*79
$GPRMC,173803.000,A,4025.6318,N,08654.7288,W,2.63,262.81,150412,,,D*79
$GPGGA,173804.03,196.2,M,-33.8,M,0000,0000*62
$GPGGA,173804.03,196.2,M,-33.8,M,0000,0000*62
$GPRMC,173804.000,A,4025.6318,N,08654.7301,W,2.92,280.07,150412,,,D*72
$GPRMC,173804.000,A,4025.6318,N,08654.7301,W,2.92,280.07,150412,,,D*72
$GPGGA,173805.000,4025.6318,N,08654.7310,W,2,8,1.03,195.8,M,-33$GPGGA,173806.000,4025.6318,N,08654.7320,W,2,8,1.03,195.6,M,-33.8,M,0000,0000*64
$GPGGA,173805.000,4025.6318,N,08654.7310,W,2,8,1.03,195.8,M,-33$GPGGA,173806.000,4025.6318,N,08654.7320,W,2,8,1.03,195.6,M,-33.8,M,0000,0000*64
$GPRMC,173806.000,A,4025.6318,N,08654.7320,W,0.92,277.72,150412,,,D*7B
$GPRMC,173806.000,A,4025.6318,N,08654.7320,W,0.92,277.72,150412,,,D*7B
$GPGGA,173807.000,4025.6315,N,08654.7329,W,2,8,1.03,195.0,M,-33.8,M,0000,0000*67
$GPGGA,173807.000,4025.6315,N,08654.7329,W,2,8,1.03,195.0,M,-33.8,M,0000,0000*67
$GPRMC,173807.000,A,4025.6315,N,08654.7329,W,2.14,277.14,150412,,,D*72
$GPRMC,173807.000,A,4025.6315,N,08654.7329,W,2.14,277.14,150412,,,D*72
N,08654.7355,W,2,8,1.03$GPGGA,173813.000,4025.6323,N,08654.7384,W,2,8,1.03,194.2,M,-33.8,M,0000,0000*60
N,08654.7355,W,2,8,1.03$GPGGA,173813.000,4025.6323,N,08654.7384,W,2,8,1.03,194.2,M,-33.8,M,0000,0000*60
$G$GPGGA,173832.000,4025.6295,N,08654.7575,W,2,8,1.31,190.6,M,-33.8,M,0000,0000*65
$G$GPGGA,173832.000,4025.6295,N,08654.7575,W,2,8,1.31,190.6,M,-33.8,M,0000,0000*65
$G$GPGGA,173834.000,4025.6296,N,08654.7597,W,2,8,1.31,189.9,M,-33.8,M,0000,0000*6B
$G$GPGGA,173834.000,4025.6296,N,08654.7597,W,2,8,1.31,189.9,M,-33.8,M,0000,0000*6B
$G08654.7606,W,2,8,1.31,189.8,M,-33.8,M,0000,0000*61
$G08654.7606,W,2,8,1.31,189.8,M,-33.8,M,0000,0000*61
$GPRMC,173835.000,A,4025.6297,N,$GPGGA,173837.000,4025.6294,N,08654.7625,W,2,8,1.31,189.3,M,-33.8,M,0000,0000*6A
$GPRMC,173835.000,A,4025.6297,N,$GPGGA,173837.000,4025.6294,N,08654.7625,W,2,8,1.31,189.3,M,-33.8,M,0000,0000*6A
$G$GPGGA,173840.000,4025.6294,N,08654.7653,W,2,8,1.30,188.0,M,-33.8,M,0000,0000*68
$G$GPGGA,173840.000,4025.6294,N,08654.7653,W,2,8,1.30,188.0,M,-33.8,M,0000,0000*68
$GPRMC,173840.000,A,4025.6294,N,08654.7653,W,2.03,278.38,150412,,,D*76
$GPRMC,173840.000,A,4025.6294,N,08654.7653,W,2.03,278.38,150412,,,D*76
$GPGGA,173841.$GPGGA,173842.000,4025.6307,N,08654.7680,W,2,9,1.00,188.2,M,-33.8,M,0000,0000*6F
$GPGGA,173841.$GPGGA,173842.000,4025.6307,N,08654.7680,W,2,9,1.00,188.2,M,-33.8,M,0000,0000*6F
$G$GPGGA,173843.000,4025.6298,N,08654.7704,W,2,9,1.00,188.2,M,-33.8,M,0000,0000*64
$G$GPGGA,173843.000,4025.6298,N,08654.7704,W,2,9,1.00,188.2,M,-33.8,M,0000,0000*64
$G$GPGGA,173845.000,4025.6297,N,08654.7724,W,2,9,1.02,188.9,M,-33.8,M,0000,0000*66
$G$GPGGA,173845.000,4025.6297,N,08654.7724,W,2,9,1.02,188.9,M,-33.8,M,0000,0000*66
$GPRMC,173845.000,A,4025.6297,N,08654.7724,W,1.58,286.97,150412,,,D*78
$GPRMC,173845.000,A,4025.6297,N,08654.7724,W,1.58,286.97,150412,,,D*78
$GPGGA,173846.000,4025.6297,N,08654.7729,W,2,9,1.00,188.8,M,-33.8,M,0000,0000*6B
$GPGGA,173846.000,4025.6297,N,08654.7729,W,2,9,1.00,188.8,M,-33.8,M,0000,0000*6B
$GPRMC,173846.00$GPGGA,173848.000,4025.6306,N,08654.7724,W,2,9,1.00,189.3,M,-33.8,M,0000,0000*6B
$GPRMC,173846.00$GPGGA,173848.000,4025.6306,N,08654.7724,W,2,9,1.00,189.3,M,-33.8,M,0000,0000*6B
$G$GPGGA,173850.000,4025.6327,N,08654.7717,W,2,9,1.00,191.9,M,-33.8,M,0000,0000*62
$G$GPGGA,173850.000,4025.6327,N,08654.7717,W,2,9,1.00,191.9,M,-33.8,M,0000,0000*62
$GPRMC,173850.000,A,4025.6327,N,08654.7717,W,2.18,332.42,150412,,,D*77
$GPRMC,173850.000,A,4025.6327,N,08654.7717,W,2.18,332.42,150412,,,D*77
$GPGGA,173851.00,0000*6C
$GPGGA,173851.00,0000*6C
$GPRMC,173851.000,A,4025.6335,N,08654.7717,W,2.23,335.68,150412,,,D*72
$GPRMC,173851.000,A,4025.6335,N,08654.7717,W,2.23,335.68,150412,,,D*72
$GPGGA,173852.000,4025.6342,N,08654.7719,W,2,9,1.00,192.9,M,-33.8,M,0000,0000*6E
$GPGGA,173852.000,4025.6342,N,08654.7719,W,2,9,1.00,192.9,M,-33.8,M,0000,0000*6E
$G$GPGGA,173853.000,4025.6352,N,08654.7711,W,2,8,1.32,193.7,M,-33.8,M,0000,0000*69
$G$GPGGA,173853.000,4025.6352,N,08654.7711,W,2,8,1.32,193.7,M,-33.8,M,0000,0000*69
$GPRMC,173853.000,A,4025.6352,N,08654.7711,W,1.55,1.87,150412,,,D*70
$GPRMC,173853.000,A,4025.6352,N,08654.7711,W,1.55,1.87,150412,,,D*70
$GPGGA,173854.000,4025.6365,N,08654.7707,W,2,8,1.32,193.8,M,-33.8,M,0000,0000*62
$GPGGA,173854.000,4025.6365,N,08654.7707,W,2,8,1.32,193.8,M,-33.8,M,0000,0000*62
$GPRMC,173854.000,$GPGGA,173855.000,4025.6376,N,08654.7702,W,2,7,1.50,194.3,M,-33.8,M,0000,0000*63
$GPRMC,173854.000,$GPGGA,173855.000,4025.6376,N,08654.7702,W,2,7,1.50,194.3,M,-33.8,M,0000,0000*63
$G25.6384,N,08654.7698,W,3.03,7.92,150412,,,D*7D
$G25.6384,N,08654.7698,W,3.03,7.92,150412,,,D*7D
$GPGGA,173857.000,4025.6393,N,08654.7691,W,2,9,1.02,196.0,M,-33.8,M,0000,0000*69
$GPGGA,173857.000,4025.6393,N,08654.7691,W,2,9,1.02,196.0,M,-33.8,M,0000,0000*69
$GPRMC,173857.000,A,4025.6393,N,08654.7691,W,2.56,350.34,150412,,,D*7F
$GPRMC,173857.000,A,4025.6393,N,08654.7691,W,2.56,350.34,150412,,,D*7F
$GPGGA,173858.000,4025.6399,N,08654.7694,W,2,9,1.02,196.5,M,-33.8,M,0000,0000*6C
$GPGGA,173858.000,4025.6399,N,08654.7694,W,2,9,1.02,196.5,M,-33.8,M,0000,0000*6C
$GPRMC,173858.000,A,4025.6399,N,08654.7694,W,2.61,0.76,150412,,,D*7B
$GPRMC,173858.000,A,4025.6399,N,08654.7694,W,2.61,0.76,150412,,,D*7B
$GPGGA,173859.000,4025.6405,N,08654.7702,W,2,9,1.02,197.5,M,-33.8,M,0000,0000*60
$GPGGA,173859.000,4025.6405,N,08654.7702,W,2,9,1.02,197.5,M,-33.8,M,0000,0000*60
$GPRMC,173859.000,A,4025.6405,N,08654.7702,W,2.59,343.31,150412,,,D*7A
$GPRMC,173859.000,A,4025.6405,N,08654.7702,W,2.59,343.31,150412,,,D*7A
$GPGGA,173900.000,4025.6412,N,08654.7707,W,2,9,1.00,197.9,M,-33.8,M,0000,0000*60
$GPGGA,173900.000,4025.6412,N,08654.7707,W,2,9,1.00,197.9,M,-33.8,M,0000,0000*60
$GPRMC,173900.000,A,4025.6412,N,08654.7707,W,2.62,344.58,150412,,,D*74
$GPRMC,173900.000,A,4025.6412,N,08654.7707,W,2.62,344.58,150412,,,D*74
$GPGGA,173$GPGGA,173902.000,4025.6428,N,08654.7714,W,2,9,1.02,198.1,M,-33.8,M,0000,0000*6C
$GPGGA,173$GPGGA,173902.000,4025.6428,N,08654.7714,W,2,9,1.02,198.1,M,-33.8,M,0000,0000*6C
$G$GPGGA,173903.000,4025.6436,N,08654.7724,W,2,9,1.00,197.8,M,-33.8,M,0000,0000*65
$G$GPGGA,173903.000,4025.6436,N,08654.7724,W,2,9,1.00,197.8,M,-33.8,M,0000,0000*65
$G$GPGGA,173905.000,4025.6453,N,08654.7717,W,2,8,1.03,199.1,M,-33.8,M,0000,0000*65
$G$GPGGA,173905.000,4025.6453,N,08654.7717,W,2,8,1.03,199.1,M,-33.8,M,0000,0000*65
$GPRMC,173905.000,A,4025.6453,N,08654.7717,W,2.53,21.30,150412,,,D*49
$GPRMC,173905.000,A,4025.6453,N,08654.7717,W,2.53,21.30,150412,,,D*49
$GPGGA,173906.0654.7712,W,3.19,20.29,150412,,,D*4A
$GPGGA,173906.0654.7712,W,3.19,20.29,150412,,,D*4A
$GPGGA,173907.000,4025.6474,N,08654.7709,W,2,8,1.05,200.3,M,-33.8,M,0000,0000*6A
$GPGGA,173907.000,4025.6474,N,08654.7709,W,2,8,1.05,200.3,M,-33.8,M,0000,0000*6A
$GPRMC,173907.000,A,4025.6474,N,08654.7709,W,2.88$GPGGA,173908.000,4025.6484,N,08654.7707,W,2,9,1.02,200.9,M,-33.8,M,0000,0000*68
$GPRMC,173907.000,A,4025.6474,N,08654.7709,W,2.88$GPGGA,173908.000,4025.6484,N,08654.7707,W,2,9,1.02,200.9,M,-33.8,M,0000,0000*68
$GPRMC,173908.000,A,4025.6484,N,08654.7707,W,2.57,24.87,150412,,,D*42
$GPRMC,173908.000,A,4025.6484,N,08654.7707,W,2.57,24.87,150412,,,D*42
$GPGGA,173909.0$GPGGA,173910.000,4025.6499,N,08654.7701,W,2,8,1.03,201.5,M,-33.8,M,0000,0000*66
$GPGGA,173909.0$GPGGA,173910.000,4025.6499,N,08654.7701,W,2,8,1.03,201.5,M,-33.8,M,0000,0000*66
$G,N,08654.7699,W,2,9,1.00,202.8,M,-33.8,M,0000,0000*6D
$G,N,08654.7699,W,2,9,1.00,202.8,M,-33.8,M,0000,0000*6D
$GPRMC,173911.000,A,4025.6507$GPGGA,173913.000,4025.6519,N,08654.7693,W,2,9,1.00,204.5,M,-33.8,M,0000,0000*61
$GPRMC,173911.000,A,4025.6507$GPGGA,173913.000,4025.6519,N,08654.7693,W,2,9,1.00,204.5,M,-33.8,M,0000,0000*61
$G08654.7695,W,3.03,359.59,150412,,,D*70
$G08654.7695,W,3.03,359.59,150412,,,D*70
$GPGGA,173915.000,4025.6541,N,08654.7698,W,2$GPGGA,173916.000,4025.6546,N,08654.7700,W,2,8,1.04,207.7,M,-33.8,M,0000,0000*61
$GPGGA,173915.000,4025.6541,N,08654.7698,W,2$GPGGA,173916.000,4025.6546,N,08654.7700,W,2,8,1.04,207.7,M,-33.8,M,0000,0000*61
$G$GPGGA,173918.000,4025.6571,N,08654.7678,W,2,9,1.02,209.4,M,-33.8,M,0000,0000*6F
$G$GPGGA,173918.000,4025.6571,N,08654.7678,W,2,9,1.02,209.4,M,-33.8,M,0000,0000*6F
$GA,173919.000,4025.6578,N,08654.7676,W,2,8,1.04,210.2,M,-33.8,M,0000,0000*60
$GA,173919.000,4025.6578,N,08654.7676,W,2,8,1.04,210.2,M,-33.8,M,0000,0000*60
$GPRMC,$GPGGA,173921.000,4025.6595,N,08654.7668,W,2,8,1.07,210.3,M,-33.8,M,0000,0000*65
$GPRMC,$GPGGA,173921.000,4025.6595,N,08654.7668,W,2,8,1.07,210.3,M,-33.8,M,0000,0000*65
$G8,M,0000,0000*6C
$G8,M,0000,0000*6C
$GPRMC,173922.000,A,4025.6607,N,08654.7669,W,3.65,28.00,150412,,,D$GPGGA,173924.000,4025.6633,N,08654.7655,W,2,9,1.00,213.5,M,-33.8,M,0000,0000*62
$GPRMC,173922.000,A,4025.6607,N,08654.7669,W,3.65,28.00,150412,,,D$GPGGA,173924.000,4025.6633,N,08654.7655,W,2,9,1.00,213.5,M,-33.8,M,0000,0000*62
$GPRMC,173924.000,A,4025.6633,N,08654.7655,W,2.95,26.09,150412,,,D*4E
$GPRMC,173924.000,A,4025.6633,N,08654.7655,W,2.95,26.09,150412,,,D*4E
$GPGGA,173925.0$GPGGA,173926.000,4025.6653,N,08654.7610,W,2,9,0.99,216.7,M,-33.8,M,0000,0000*61
$GPGGA,173925.0$GPGGA,173926.000,4025.6653,N,08654.7610,W,2,9,0.99,216.7,M,-33.8,M,0000,0000*61
$G$GPGGA,173927.000,4025.6662,N,08654.7594,W,2,9,1.00,216.4,M,-33.8,M,0000,0000*6F
$G$GPGGA,173927.000,4025.6662,N,08654.7594,W,2,9,1.00,216.4,M,-33.8,M,0000,0000*6F
$G$GPGGA,173929.000,4025.6673,N,08654.7571,W,2,9,1.00,215.8,M,-33.8,M,0000,0000*65
$G$GPGGA,173929.000,4025.6673,N,08654.7571,W,2,9,1.00,215.8,M,-33.8,M,0000,0000*65
$G0,215.9,M,-33.8,M,0000,0000*69
$G0,215.9,M,-33.8,M,0000,0000*69
$GPRMC,173930.000,A,4025.6674,N,08654.7562,W,2.76,65$GPGGA,173932.000,4025.6679,N,08654.7548,W,2,9,1.00,215.2,M,-33.8,M,0000,0000*65
$G6
$GPRMC,173930.000,A,4025.6674,N,08654.7562,W,2.76,65$GPGGA,173932.000,4025.6679,N,08654.7548,W,2,9,1.00,215.2,M,-33.8,M,0000,0000*65
$G6
$GPGGA,173934.000,4025.6687,N,08654.7530,W,2,8,1.04,214.0,M,-33.8,M,0000,0000*6B
$GPGGA,173934.000,4025.6687,N,08654.7530,W,2,8,1.04,214.0,M,-33.8,M,0000,0000*6B
$GPRMC,173934.000,A,4025.6687,N,08654.7530,W,2.52,68.03,150412,,,D*4B
$GPRMC,173934.000,A,4025.6687,N,08654.7530,W,2.52,68.03,150412,,,D*4B
$GPGGA,173935.000,4025.6695,N,08654.7508,W,2,8,1.04,212.6,M,-33.8,M,0000,0000*62
$GPGGA,173935.000,4025.6695,N,08654.7508,W,2,8,1.04,212.6,M,-33.8,M,0000,0000*62
$GPRMC,173935.$GPGGA,173937.000,4025.6703,N,08654.7496,W,2,7,1.10,211.3,M,-33.8,M,0000,0000*64
$G,0000*61
$GPRMC,173935.$GPGGA,173937.000,4025.6703,N,08654.7496,W,2,7,1.10,211.3,M,-33.8,M,0000,0000*64
$G,0000*61
$GPRMC,173938.000,A,4025.6711,N,08654.7494,W,2.48,68.16,150412,,,D*49
$GPRMC,173938.000,A,4025.6711,N,08654.7494,W,2.48,68.16,150412,,,D*49
$GP$GPGGA,173940.000,4025.6724,N,08654.7482,W,2,7,1.10,209.4,M,-33.8,M,0000,0000*6A
$GP$GPGGA,173940.000,4025.6724,N,08654.7482,W,2,7,1.10,209.4,M,-33.8,M,0000,0000*6A
$G9,150412,,,D*4B
$G9,150412,,,D*4B
$GPGGA,173942.000,4025.6730,N,08654.7472,W,2,7,1.10,208.9,M,-33.8,M$GPGGA,173943.000,4025.6735,N,08654.7459,W,2,6,1.22,208.2,M,-33.8,M,0000,0000*68
$GPGGA,173942.000,4025.6730,N,08654.7472,W,2,7,1.10,208.9,M,-33.8,M$GPGGA,173943.000,4025.6735,N,08654.7459,W,2,6,1.22,208.2,M,-33.8,M,0000,0000*68
$G$GPGGA,173945.000,4025.6756,N,08654.7445,W,2,7,1.10,207.7,M,-33.8,M,0000,0000*6C
$G$GPGGA,173945.000,4025.6756,N,08654.7445,W,2,7,1.10,207.7,M,-33.8,M,0000,0000*6C
$G654.7439,W,2,7,1.10,207.2,M,-33.8,M,0000,0000*66
$G654.7439,W,2,7,1.10,207.2,M,-33.8,M,0000,0000*66
$GPRMC,173946.000,A,4025.6762,N,08$GPGGA,173948.000,4025.6777,N,08654.7418,W,2,8,1.03,206.8,M,-33.8,M,0000,0000*69
$GPRMC,173946.000,A,4025.6762,N,08$GPGGA,173948.000,4025.6777,N,08654.7418,W,2,8,1.03,206.8,M,-33.8,M,0000,0000*69
$G000,A,4025.6780,N,08654.7413,W,1.98,44.19,150412,,,D*47
$G000,A,4025.6780,N,08654.7413,W,1.98,44.19,150412,,,D*47
$GPGGA,173950.000,4025.6784$GPGGA,173951.000,4025.6787,N,08654.7413,W,2,8,1.04,207.8,M,-33.8,M,0000,0000*63
$GPGGA,173950.000,4025.6784$GPGGA,173951.000,4025.6787,N,08654.7413,W,2,8,1.04,207.8,M,-33.8,M,0000,0000*63
$G$GPGGA,173953.000,4025.6796,N,08654.7387,W,2,8,1.04,206.8,M,-33.8,M,0000,0000*6A
$G$GPGGA,173953.000,4025.6796,N,08654.7387,W,2,8,1.04,206.8,M,-33.8,M,0000,0000*6A
$G$GPGGA,173954.000,4025.6805,N,08654.7375,W,2,8,1.04,206.5,M,-33.8,M,0000,0000*68
$G$GPGGA,173954.000,4025.6805,N,08654.7375,W,2,8,1.04,206.5,M,-33.8,M,0000,0000*68
$G$GPGGA,173956.000,4025.6818,N,08654.7353,W,2,7,1.12,205.3,M,-33.8,M,0000,0000*6F
$G0*6A
$G$GPGGA,173956.000,4025.6818,N,08654.7353,W,2,7,1.12,205.3,M,-33.8,M,0000,0000*6F
$G0*6A
$GPRMC,173957.000,A,4025.6821,N,08654.7345,W,0.90,55.58,150412,,,D*44
$GPRMC,173957.000,A,4025.6821,N,08654.7345,W,0.90,55.58,150412,,,D*44
$GPGGA,$GPGGA,173959.000,4025.6822,N,08654.7328,W,2,8,1.04,204.8,M,-33.8,M,0000,0000*67
$G4E
$GPGGA,$GPGGA,173959.000,4025.6822,N,08654.7328,W,2,8,1.04,204.8,M,-33.8,M,0000,0000*67
$G4E
$GPGGA,174001.000,4025.6828,N,08654.7317,W,2,8,1.04,204.3,M,-33.8,M,0000,0000*69$GPGGA,174002.000,4025.6833,N,08654.7310,W,2,8,1.04,204.6,M,-33.8,M,0000,0000*62
$GPGGA,174001.000,4025.6828,N,08654.7317,W,2,8,1.04,204.3,M,-33.8,M,0000,0000*69$GPGGA,174002.000,4025.6833,N,08654.7310,W,2,8,1.04,204.6,M,-33.8,M,0000,0000*62
$G$GPGGA,174004.000,4025.6844,N,08654.7299,W,2,8,1.04,204.2,M,-33.8,M,0000,0000*60
$G$GPGGA,174004.000,4025.6844,N,08654.7299,W,2,8,1.04,204.2,M,-33.8,M,0000,0000*60
$G-33.8,M,0000,0000*63
$G-33.8,M,0000,0000*63
$GPRMC,174005.000,A,4025.6849,N,08654.7294,W,2.67,42.96,150412$GPGGA,174007.000,4025.6861,N,08654.7287,W,2,9,0.99,202.9,M,-33.8,M,0000,0000*62
$GPRMC,174005.000,A,4025.6849,N,08654.7294,W,2.67,42.96,150412$GPGGA,174007.000,4025.6861,N,08654.7287,W,2,9,0.99,202.9,M,-33.8,M,0000,0000*62
$G3.21,150412,,,D*48
$G3.21,150412,,,D*48
$GPGGA,174009.000,4025.6870,N,08654.7277,W,2,8,1.03,202.2,M,-33.$GPGGA,174010.000,4025.6877,N,08654.7276,W,2,9,0.99,201.8,M,-33.8,M,0000,0000*6F
$GPGGA,174009.000,4025.6870,N,08654.7277,W,2,8,1.03,202.2,M,-33.$GPGGA,174010.000,4025.6877,N,08654.7276,W,2,9,0.99,201.8,M,-33.8,M,0000,0000*6F
$G$GPGGA,174012.000,4025.6884,N,08654.7286,W,2,9,0.99,200.7,M,-33.8,M,0000,0000*60
$G$GPGGA,174012.000,4025.6884,N,08654.7286,W,2,9,0.99,200.7,M,-33.8,M,0000,0000*60
$G,N,08654.7291,W,2,8,1.04,200.2,M,-33.8,M,0000,0000*66
$G,N,08654.7291,W,2,8,1.04,200.2,M,-33.8,M,0000,0000*66
$GPRMC,174013.000,A,4025.6884$GPGGA,174015.000,4025.6895,N,08654.7300,W,2,9,0.99,199.7,M,-33.8,M,0000,0000*6B
$GPRMC,174013.000,A,4025.6884$GPGGA,174015.000,4025.6895,N,08654.7300,W,2,9,0.99,199.7,M,-33.8,M,0000,0000*6B
$G6898,N,08654.7302,W,0.80,348.49,150412,,,D*70
$G6898,N,08654.7302,W,0.80,348.49,150412,,,D*70
$GPGGA,174017.000,4025.6899,N,08654.7$GPGGA,174018.000,4025.6899,N,08654.7310,W,2,8,1.03,199.4,M,-33.8,M,0000,0000*6B
$GPGGA,174017.000,4025.6899,N,08654.7$GPGGA,174018.000,4025.6899,N,08654.7310,W,2,8,1.03,199.4,M,-33.8,M,0000,0000*6B
$G$GPGGA,174020.000,4025.6885,N,08654.7300,W,2,8,1.03,199.5,M,-33.8,M,0000,0000*6D
$G$GPGGA,174020.000,4025.6885,N,08654.7300,W,2,8,1.03,199.5,M,-33.8,M,0000,0000*6D
$G$GPGGA,174021.000,4025.6881,N,08654.7294,W,2,8,1.04,199.4,M,-33.8,M,0000,0000*62
$G$GPGGA,174021.000,4025.6881,N,08654.7294,W,2,8,1.04,199.4,M,-33.8,M,0000,0000*62
$G$GPGGA,174023.000,4025.6889,N,08654.7288,W,2,9,0.99,199.4,M,-33.8,M,0000,0000*61
$G$GPGGA,174023.000,4025.6889,N,08654.7288,W,2,9,0.99,199.4,M,-33.8,M,0000,0000*61
$G,0000,0000*61
$G,0000,0000*61
$GPRMC,174024.000,A,4025.6891,N,08654.7278,W,0.53,36.82,150412,,,D*47$GPGGA,174026.000,4025.6893,N,08654.7277,W,2,9,0.99,200.1,M,-33.8,M,0000,0000*69
$GPRMC,174024.000,A,4025.6891,N,08654.7278,W,0.53,36.82,150412,,,D*47$GPGGA,174026.000,4025.6893,N,08654.7277,W,2,9,0.99,200.1,M,-33.8,M,0000,0000*69
$G$GPGGA,174028.000,4025.6899,N,08654.7273,W,2,7,1.10,200.4,M,-33.8,M,0000,0000*62
$G$GPGGA,174028.000,4025.6899,N,08654.7273,W,2,7,1.10,200.4,M,-33.8,M,0000,0000*62
$G$GPGGA,174029.000,4025.6900,N,08654.7273,W,2,7,1.10,200.5,M,-33.8,M,0000,0000*63
$G$GPGGA,174029.000,4025.6900,N,08654.7273,W,2,7,1.10,200.5,M,-33.8,M,0000,0000*63
$G$GPGGA,174031.000,4025.6902,N,08654.7273,W,2,8,1.17,200.4,M,-33.8,M,0000,0000*61
$G$GPGGA,174031.000,4025.6902,N,08654.7273,W,2,8,1.17,200.4,M,-33.8,M,0000,0000*61
$G7272,W,2,7,1.10,200.4,M,-33.8,M,0000,0000*6A
$G7272,W,2,7,1.10,200.4,M,-33.8,M,0000,0000*6A
$GPRMC,174032.000,A,4025.6903,N,08654.$GPGGA,174034.000,4025.6903,N,08654.7272,W,2,9,0.99,200.3,M,-33.8,M,0000,0000*65
$GPRMC,174032.000,A,4025.6903,N,08654.$GPGGA,174034.000,4025.6903,N,08654.7272,W,2,9,0.99,200.3,M,-33.8,M,0000,0000*65
$G5.6903,N,08654.7273,W,0.04,17.98,150412,,,D*4C
$G5.6903,N,08654.7273,W,0.04,17.98,150412,,,D*4C
$GPGGA,174036.000,4025.6903,N,08654.$GPGGA,174037.000,4025.6902,N,08654.7272,W,2,8,1.04,200.2,M,-33.8,M,0000,0000*62
$GPGGA,174036.000,4025.6903,N,08654.$GPGGA,174037.000,4025.6902,N,08654.7272,W,2,8,1.04,200.2,M,-33.8,M,0000,0000*62
$G$GPGGA,174039.000,4025.6903,N,08654.7271,W,2,8,1.04,200.2,M,-33.8,M,0000,0000*6E
$G$GPGGA,174039.000,4025.6903,N,08654.7271,W,2,8,1.04,200.2,M,-33.8,M,0000,0000*6E
$GPGGA,174040.000,4025.6903,N,08654.7271,W,2,8,1.03,200.2,M,-33.8,M,0000,0000*67
$GPGGA,174040.000,4025.6903,N,08654.7271,W,2,8,1.03,200.2,M,-33.8,M,0000,0000*67
$GPR$GPGGA,174042.000,4025.6903,N,08654.7271,W,2,7,1.10,200.1,M,-33.8,M,0000,0000*6B
$GPR$GPGGA,174042.000,4025.6903,N,08654.7271,W,2,7,1.10,200.1,M,-33.8,M,0000,0000*6B
$G174043.000,A,4025.6903,N,08654.7271,W,0.03,17.98,150412,,,D*48
$G174043.000,A,4025.6903,N,08654.7271,W,0.03,17.98,150412,,,D*48
$GPGGA,174044.000,40$GPGGA,174045.000,4025.6903,N,08654.7271,W,2,7,1.10,200.1,M,-33.8,M,0000,0000*6C
$GPGGA,174044.000,40$GPGGA,174045.000,4025.6903,N,08654.7271,W,2,7,1.10,200.1,M,-33.8,M,0000,0000*6C
$G$GPGGA,174047.000,4025.6903,N,08654.7271,W,2,7,1.10,200.0,M,-33.8,M,0000,0000*6F
$G$GPGGA,174047.000,4025.6903,N,08654.7271,W,2,7,1.10,200.0,M,-33.8,M,0000,0000*6F
